{
  "Paris": [
    {
      "title": "Paris",
      "position": {
        "lat": 48.853495,
        "lng": 2.348392
      }
    },
    {
      "title": "19. arrondissement",
      "position": {
        "lat": 48.889483,
        "lng": 2.383964
      }
    },
    {
      "title": "Fresnes",
      "position": {
        "lat": 48.754715,
        "lng": 2.322496
      }
    },
    {
      "title": "Forges-les-Bains",
      "position": {
        "lat": 48.628075,
        "lng": 2.098505
      }
    },
    {
      "title": "Fresnay-l'Évêque",
      "position": {
        "lat": 48.265217,
        "lng": 1.82333
      }
    },
    {
      "title": "Francourville",
      "position": {
        "lat": 48.404125,
        "lng": 1.661197
      }
    },
    {
      "title": "Fréville-du-Gâtinais",
      "position": {
        "lat": 48.023876,
        "lng": 2.444091
      }
    },
    {
      "title": "Fromont",
      "position": {
        "lat": 48.256275,
        "lng": 2.504143
      }
    },
    {
      "title": "Fresnay-le-Comte",
      "position": {
        "lat": 48.3024,
        "lng": 1.47856
      }
    }
  ],
  "Marseille": [
    {
      "title": "Marsilya",
      "position": {
        "lat": 43.294235,
        "lng": 5.377085
      }
    }
  ],
  "Lyon": [
    {
      "title": "Lyon",
      "position": {
        "lat": 45.766106,
        "lng": 4.832619
      }
    }
  ],
  "Toulouse": [
    {
      "title": "Toulouse",
      "position": {
        "lat": 43.60372,
        "lng": 1.445711
      }
    },
    {
      "title": "Toujouse",
      "position": {
        "lat": 43.833576,
        "lng": -0.177737
      }
    }
  ],
  "Nice": [
    {
      "title": "Nice",
      "position": {
        "lat": 43.710082,
        "lng": 7.261844
      }
    }
  ],
  "Nantes": [
    {
      "title": "Nantes",
      "position": {
        "lat": 47.218183,
        "lng": -1.551244
      }
    },
    {
      "title": "Santes",
      "position": {
        "lat": 50.59228,
        "lng": 2.960697
      }
    },
    {
      "title": "Nances",
      "position": {
        "lat": 45.590427,
        "lng": 5.796189
      }
    }
  ],
  "Strasbourg": [
    {
      "title": "Strazburg",
      "position": {
        "lat": 48.583483,
        "lng": 7.746848
      }
    }
  ],
  "Montpellier": [
    {
      "title": "Montpellier",
      "position": {
        "lat": 43.610073,
        "lng": 3.87727
      }
    },
    {
      "title": "Le Montellier",
      "position": {
        "lat": 45.92996,
        "lng": 5.072561
      }
    }
  ],
  "Bordeaux": [
    {
      "title": "Bordeaux",
      "position": {
        "lat": 44.840115,
        "lng": -0.570681
      }
    },
    {
      "title": "Bourdeaux",
      "position": {
        "lat": 44.58728,
        "lng": 5.13434
      }
    },
    {
      "title": "Bordeaux-Saint-Clair",
      "position": {
        "lat": 49.700638,
        "lng": 0.257574
      }
    },
    {
      "title": "Fréjus",
      "position": {
        "lat": 43.432735,
        "lng": 6.736484
      }
    }
  ],
  "Lille": [
    {
      "title": "Lille",
      "position": {
        "lat": 50.6363,
        "lng": 3.063554
      }
    }
  ]
}