{
  "Paris": {
    "Paris": [
      {
        "label": "19. arrondissement, Paris, Île-de-France, Fransa",
        "value": "19. arrondissement",
        "type": "locality",
        "position": {
          "lat": 48.889483,
          "lng": 2.383964
        }
      },
      {
        "label": "Rue Francis Ponge, 75019 Paris, Fransa",
        "value": "Rue Francis Ponge",
        "type": "address",
        "position": {
          "lat": 48.882221,
          "lng": 2.394845
        }
      },
      {
        "label": "Rue Francis Picabia, 75020 Paris, Fransa",
        "value": "Rue Francis Picabia",
        "type": "address",
        "position": {
          "lat": 48.870035,
          "lng": 2.381984
        }
      },
      {
        "label": "Rue Francis Jammes, 75010 Paris, Fransa",
        "value": "Rue Francis Jammes",
        "type": "address",
        "position": {
          "lat": 48.878414,
          "lng": 2.368329
        }
      },
      {
        "label": "Rue Francis Carco, 75018 Paris, Fransa",
        "value": "Rue Francis Carco",
        "type": "address",
        "position": {
          "lat": 48.889002,
          "lng": 2.356239
        }
      },
      {
        "label": "Rue Frida Kahlo, 93000 Bobigny, Fransa",
        "value": "Rue Frida Kahlo",
        "type": "address",
        "position": {
          "lat": 48.916126,
          "lng": 2.412914
        }
      }
    ],
    "19. arrondissement": [
      {
        "label": "19. arrondissement, Paris, Île-de-France, Fransa",
        "value": "19. arrondissement",
        "type": "locality",
        "position": {
          "lat": 48.889483,
          "lng": 2.383964
        }
      },
      {
        "label": "Rue Francis Ponge, 75019 Paris, Fransa",
        "value": "Rue Francis Ponge",
        "type": "address",
        "position": {
          "lat": 48.882221,
          "lng": 2.394845
        }
      },
      {
        "label": "Rue Francis Picabia, 75020 Paris, Fransa",
        "value": "Rue Francis Picabia",
        "type": "address",
        "position": {
          "lat": 48.870035,
          "lng": 2.381984
        }
      },
      {
        "label": "Rue Francis Jammes, 75010 Paris, Fransa",
        "value": "Rue Francis Jammes",
        "type": "address",
        "position": {
          "lat": 48.878414,
          "lng": 2.368329
        }
      },
      {
        "label": "Rue Francis Carco, 75018 Paris, Fransa",
        "value": "Rue Francis Carco",
        "type": "address",
        "position": {
          "lat": 48.889002,
          "lng": 2.356239
        }
      },
      {
        "label": "Rue Frida Kahlo, 93000 Bobigny, Fransa",
        "value": "Rue Frida Kahlo",
        "type": "address",
        "position": {
          "lat": 48.916126,
          "lng": 2.412914
        }
      }
    ],
    "Fresnes": [
      {
        "label": "Chemin De Fresnes, 92160 Antony, Fransa",
        "value": "Chemin De Fresnes",
        "type": "address",
        "position": {
          "lat": 48.752936,
          "lng": 2.307239
        }
      },
      {
        "label": "Fresnes, Val-de-Marne, Fransa",
        "value": "Fresnes",
        "type": "place",
        "position": {
          "lat": 48.754715,
          "lng": 2.322496
        }
      },
      {
        "label": "Rue Françoise Dolto, 91200 Athis-Mons, Fransa",
        "value": "Rue Françoise Dolto",
        "type": "address",
        "position": {
          "lat": 48.701486,
          "lng": 2.361247
        }
      },
      {
        "label": "Rue Frédéric Merlet, 91260 Juvisy-sur-Orge, Fransa",
        "value": "Rue Frédéric Merlet",
        "type": "address",
        "position": {
          "lat": 48.694927,
          "lng": 2.369124
        }
      },
      {
        "label": "Rue François Malard, 91550 Paray-Vieille-Poste, Fransa",
        "value": "Rue François Malard",
        "type": "address",
        "position": {
          "lat": 48.716902,
          "lng": 2.363075
        }
      },
      {
        "label": "Rue François Sautet, 94550 Chevilly-Larue, Fransa",
        "value": "Rue François Sautet",
        "type": "address",
        "position": {
          "lat": 48.766626,
          "lng": 2.365485
        }
      }
    ],
    "Forges-les-Bains": [
      {
        "label": "Rue De Forges Les Bains, 91470 Pecqueuse, Fransa",
        "value": "Rue De Forges Les Bains",
        "type": "address",
        "position": {
          "lat": 48.6447,
          "lng": 2.051446
        }
      },
      {
        "label": "Forges-les-Bains, Essonne, Fransa",
        "value": "Forges-les-Bains",
        "type": "place",
        "position": {
          "lat": 48.628075,
          "lng": 2.098505
        }
      },
      {
        "label": "Les Babins, 91890 Videlles, Fransa",
        "value": "Les Babins",
        "type": "address",
        "position": {
          "lat": 48.465651,
          "lng": 2.430283
        }
      },
      {
        "label": "Franche Conté, Les Ulis, Essonne, Fransa",
        "value": "Franche Conté",
        "type": "neighborhood",
        "position": {
          "lat": 48.6774,
          "lng": 2.175296
        }
      },
      {
        "label": "La Francilienne, 91250 Tigery, Fransa",
        "value": "La Francilienne",
        "type": "address",
        "position": {
          "lat": 48.643967,
          "lng": 2.537645
        }
      },
      {
        "label": "Rue De Franche-Comté, 91940 Les Ulis, Fransa",
        "value": "Rue De Franche-Comté",
        "type": "address",
        "position": {
          "lat": 48.682465,
          "lng": 2.178282
        }
      },
      {
        "label": "Rue François Couperin, 91440 Bures-sur-Yvette, Fransa",
        "value": "Rue François Couperin",
        "type": "address",
        "position": {
          "lat": 48.678248,
          "lng": 2.158908
        }
      }
    ],
    "Fresnay-l'Évêque": [
      {
        "label": "Fresnay-l'Évêque, Eure-et-Loir, Fransa",
        "value": "Fresnay-l'Évêque",
        "type": "place",
        "position": {
          "lat": 48.265217,
          "lng": 1.82333
        }
      },
      {
        "label": "Paris, 41100 Rocé, Fransa",
        "value": "Paris",
        "type": "address",
        "position": {
          "lat": 47.826053,
          "lng": 1.159989
        }
      },
      {
        "label": "Paris, Fransa",
        "value": "Paris",
        "type": "region",
        "position": {
          "lat": 48.853495,
          "lng": 2.348392
        }
      },
      {
        "label": "Fresnay, Aube, Fransa",
        "value": "Fresnay",
        "type": "place",
        "position": {
          "lat": 48.31459,
          "lng": 4.750011
        }
      },
      {
        "label": "Paris, 83170 Brignoles, Fransa",
        "value": "Paris",
        "type": "address",
        "position": {
          "lat": 43.415211,
          "lng": 6.069561
        }
      },
      {
        "label": "Chemin De L'évêque, 26300 Bésayes, Fransa",
        "value": "Chemin De L'évêque",
        "type": "address",
        "position": {
          "lat": 44.960721,
          "lng": 5.119631
        }
      },
      {
        "label": "Paris, 11230 Sainte-Colombe-sur-l'Hers, Fransa",
        "value": "Paris",
        "type": "address",
        "position": {
          "lat": 42.947813,
          "lng": 1.957948
        }
      },
      {
        "label": "Lieu Dit Fresnay, 78890 Garancières, Fransa",
        "value": "Lieu Dit Fresnay",
        "type": "address",
        "position": {
          "lat": 48.840486,
          "lng": 1.752305
        }
      }
    ],
    "Francourville": [
      {
        "label": "Paris, 41100 Rocé, Fransa",
        "value": "Paris",
        "type": "address",
        "position": {
          "lat": 47.826053,
          "lng": 1.159989
        }
      },
      {
        "label": "Paris, Fransa",
        "value": "Paris",
        "type": "region",
        "position": {
          "lat": 48.853495,
          "lng": 2.348392
        }
      },
      {
        "label": "Francourville, Eure-et-Loir, Fransa",
        "value": "Francourville",
        "type": "place",
        "position": {
          "lat": 48.404125,
          "lng": 1.661197
        }
      },
      {
        "label": "Paris, 83170 Brignoles, Fransa",
        "value": "Paris",
        "type": "address",
        "position": {
          "lat": 43.415211,
          "lng": 6.069561
        }
      },
      {
        "label": "Paris, 11230 Sainte-Colombe-sur-l'Hers, Fransa",
        "value": "Paris",
        "type": "address",
        "position": {
          "lat": 42.947813,
          "lng": 1.957948
        }
      },
      {
        "label": "Paris, 36120 Jeu-les-Bois, Fransa",
        "value": "Paris",
        "type": "address",
        "position": {
          "lat": 46.694191,
          "lng": 1.811749
        }
      },
      {
        "label": "Paris, 31560 Saint-Léon, Fransa",
        "value": "Paris",
        "type": "address",
        "position": {
          "lat": 43.419569,
          "lng": 1.549305
        }
      }
    ],
    "Fréville-du-Gâtinais": [
      {
        "label": "Fréville-du-Gâtinais, Loiret, Fransa",
        "value": "Fréville-du-Gâtinais",
        "type": "place",
        "position": {
          "lat": 48.023876,
          "lng": 2.444091
        }
      },
      {
        "label": "Beaumont-du-Gâtinais, Seine-et-Marne, Fransa",
        "value": "Beaumont-du-Gâtinais",
        "type": "place",
        "position": {
          "lat": 48.135994,
          "lng": 2.475036
        }
      },
      {
        "label": "Avenue Du Gâtinais, 45680 Dordives, Fransa",
        "value": "Avenue Du Gâtinais",
        "type": "address",
        "position": {
          "lat": 48.145251,
          "lng": 2.782861
        }
      },
      {
        "label": "Rue Du Gâtinais, 45120 Châlette-sur-Loing, Fransa",
        "value": "Rue Du Gâtinais",
        "type": "address",
        "position": {
          "lat": 48.011368,
          "lng": 2.710694
        }
      },
      {
        "label": "Rue Du Gâtinais, 77570 La Madeleine-sur-Loing, Fransa",
        "value": "Rue Du Gâtinais",
        "type": "address",
        "position": {
          "lat": 48.208741,
          "lng": 2.701915
        }
      },
      {
        "label": "Rue Du Gâtinais, 77167 Bagneaux-sur-Loing, Fransa",
        "value": "Rue Du Gâtinais",
        "type": "address",
        "position": {
          "lat": 48.23384,
          "lng": 2.704299
        }
      },
      {
        "label": "Rue Du Gâtinais, 77570 Château-Landon, Fransa",
        "value": "Rue Du Gâtinais",
        "type": "address",
        "position": {
          "lat": 48.150361,
          "lng": 2.696751
        }
      }
    ],
    "Fromont": [
      {
        "label": "Paris, 41100 Rocé, Fransa",
        "value": "Paris",
        "type": "address",
        "position": {
          "lat": 47.826053,
          "lng": 1.159989
        }
      },
      {
        "label": "Paris, Fransa",
        "value": "Paris",
        "type": "region",
        "position": {
          "lat": 48.853495,
          "lng": 2.348392
        }
      },
      {
        "label": "Fromont, Seine-et-Marne, Fransa",
        "value": "Fromont",
        "type": "place",
        "position": {
          "lat": 48.256275,
          "lng": 2.504143
        }
      },
      {
        "label": "Paris, 83170 Brignoles, Fransa",
        "value": "Paris",
        "type": "address",
        "position": {
          "lat": 43.415211,
          "lng": 6.069561
        }
      },
      {
        "label": "Paris, 11230 Sainte-Colombe-sur-l'Hers, Fransa",
        "value": "Paris",
        "type": "address",
        "position": {
          "lat": 42.947813,
          "lng": 1.957948
        }
      },
      {
        "label": "Paris, 36120 Jeu-les-Bois, Fransa",
        "value": "Paris",
        "type": "address",
        "position": {
          "lat": 46.694191,
          "lng": 1.811749
        }
      },
      {
        "label": "Paris, 31560 Saint-Léon, Fransa",
        "value": "Paris",
        "type": "address",
        "position": {
          "lat": 43.419569,
          "lng": 1.549305
        }
      }
    ],
    "Fresnay-le-Comte": [
      {
        "label": "Fresnay-le-Comte, Eure-et-Loir, Fransa",
        "value": "Fresnay-le-Comte",
        "type": "place",
        "position": {
          "lat": 48.3024,
          "lng": 1.47856
        }
      },
      {
        "label": "Villeneuve-le-Comte, Seine-et-Marne, Fransa",
        "value": "Villeneuve-le-Comte",
        "type": "place",
        "position": {
          "lat": 48.814137,
          "lng": 2.829744
        }
      },
      {
        "label": "Chemin De La Comté, 91510 Janville-sur-Juine, Fransa",
        "value": "Chemin De La Comté",
        "type": "address",
        "position": {
          "lat": 48.50665,
          "lng": 2.232507
        }
      },
      {
        "label": "Rue De Fresnay Le Comte, 28360 La Bourdinière-Saint-Loup, Fransa",
        "value": "Rue De Fresnay Le Comte",
        "type": "address",
        "position": {
          "lat": 48.294926,
          "lng": 1.452488
        }
      },
      {
        "label": "Chemin De Paris, 77580 Coutevroult, Fransa",
        "value": "Chemin De Paris",
        "type": "address",
        "position": {
          "lat": 48.859674,
          "lng": 2.851821
        }
      },
      {
        "label": "Rue De Paris, 77144 Montévrain, Fransa",
        "value": "Rue De Paris",
        "type": "address",
        "position": {
          "lat": 48.858247,
          "lng": 2.759702
        }
      },
      {
        "label": "Allée Françoise Dolto, 77600 Bussy-Saint-Georges, Fransa",
        "value": "Allée Françoise Dolto",
        "type": "address",
        "position": {
          "lat": 48.836387,
          "lng": 2.735461
        }
      }
    ]
  },
  "Marseille": {
    "Marsilya": [
      {
        "label": "Marsilya, Bouches-du-Rhône, Fransa",
        "value": "Marsilya",
        "type": "place",
        "position": {
          "lat": 43.294235,
          "lng": 5.377085
        }
      },
      {
        "label": "Marseille, 31560 Montgeard, Fransa",
        "value": "Marseille",
        "type": "address",
        "position": {
          "lat": 43.336567,
          "lng": 1.65338
        }
      },
      {
        "label": "Marseille, 47170 Saint-Pé-Saint-Simon, Fransa",
        "value": "Marseille",
        "type": "address",
        "position": {
          "lat": 43.997098,
          "lng": 0.102643
        }
      },
      {
        "label": "Rue Françoise Ega Dite Mam'ega, 13014 Marsilya, Fransa",
        "value": "Rue Françoise Ega Dite Mam'ega",
        "type": "address",
        "position": {
          "lat": 43.332647,
          "lng": 5.39573
        }
      },
      {
        "label": "Marceille, 66300 Villemolaque, Fransa",
        "value": "Marceille",
        "type": "address",
        "position": {
          "lat": 42.58919,
          "lng": 2.834079
        }
      },
      {
        "label": "Marceille, 09700 Saverdun, Fransa",
        "value": "Marceille",
        "type": "address",
        "position": {
          "lat": 43.223859,
          "lng": 1.560192
        }
      }
    ]
  },
  "Lyon": {
    "Lyon": [
      {
        "label": "Lyon, Rhône, Fransa",
        "value": "Lyon",
        "type": "place",
        "position": {
          "lat": 45.766106,
          "lng": 4.832619
        }
      },
      {
        "label": "Lyon, 09500 Saint-Quentin-la-Tour, Fransa",
        "value": "Lyon",
        "type": "address",
        "position": {
          "lat": 43.042937,
          "lng": 1.90372
        }
      },
      {
        "label": "Rue Ravier, 69007 Lyon, Fransa",
        "value": "Rue Ravier",
        "type": "address",
        "position": {
          "lat": 45.738357,
          "lng": 4.839464
        }
      },
      {
        "label": "Rue Des Frères Emmanuel-Joseph Et Louis Amadéo, 69200 Vénissieux, Fransa",
        "value": "Rue Des Frères Emmanuel-Joseph Et Louis Amadéo",
        "type": "address",
        "position": {
          "lat": 45.711685,
          "lng": 4.890545
        }
      },
      {
        "label": "Rue Frédéric Et Irène Joliot-Curie, 69100 Villeurbanne, Fransa",
        "value": "Rue Frédéric Et Irène Joliot-Curie",
        "type": "address",
        "position": {
          "lat": 45.762888,
          "lng": 4.896658
        }
      },
      {
        "label": "Rue François Vincent Raspail, 69190 Saint-Fons, Fransa",
        "value": "Rue François Vincent Raspail",
        "type": "address",
        "position": {
          "lat": 45.708709,
          "lng": 4.855973
        }
      }
    ]
  },
  "Toulouse": {
    "Toulouse": [
      {
        "label": "Route De Toulouse, 33870 Vayres, Fransa",
        "value": "Route De Toulouse",
        "type": "address",
        "position": {
          "lat": 44.895979,
          "lng": -0.336955
        }
      },
      {
        "label": "Toulouse, Haute-Garonne, Fransa",
        "value": "Toulouse",
        "type": "place",
        "position": {
          "lat": 43.60372,
          "lng": 1.445711
        }
      },
      {
        "label": "Impasse De Toulouse, 71310 Mervans, Fransa",
        "value": "Impasse De Toulouse",
        "type": "address",
        "position": {
          "lat": 46.781843,
          "lng": 5.183716
        }
      },
      {
        "label": "Toulouse, 82700 Montech, Fransa",
        "value": "Toulouse",
        "type": "address",
        "position": {
          "lat": 43.974806,
          "lng": 1.262855
        }
      },
      {
        "label": "Rue François Boyer-Fonfrède, 31000 Toulouse, Fransa",
        "value": "Rue François Boyer-Fonfrède",
        "type": "address",
        "position": {
          "lat": 43.601479,
          "lng": 1.44028
        }
      },
      {
        "label": "Rue Federico Garcia Lorca, 31200 Toulouse, Fransa",
        "value": "Rue Federico Garcia Lorca",
        "type": "address",
        "position": {
          "lat": 43.634758,
          "lng": 1.426598
        }
      },
      {
        "label": "Toujouse, Gers, Fransa",
        "value": "Toujouse",
        "type": "place",
        "position": {
          "lat": 43.833576,
          "lng": -0.177737
        }
      },
      {
        "label": "Frederic Estebe, Toulouse, Haute-Garonne, Fransa",
        "value": "Frederic Estebe",
        "type": "neighborhood",
        "position": {
          "lat": 43.620136,
          "lng": 1.435923
        }
      },
      {
        "label": "Francoy, Cugnaux, Haute-Garonne, Fransa",
        "value": "Francoy",
        "type": "neighborhood",
        "position": {
          "lat": 43.547398,
          "lng": 1.348717
        }
      }
    ],
    "Toujouse": [
      {
        "label": "Route De Toulouse, 33870 Vayres, Fransa",
        "value": "Route De Toulouse",
        "type": "address",
        "position": {
          "lat": 44.895979,
          "lng": -0.336955
        }
      },
      {
        "label": "Toulouse, Haute-Garonne, Fransa",
        "value": "Toulouse",
        "type": "place",
        "position": {
          "lat": 43.60372,
          "lng": 1.445711
        }
      },
      {
        "label": "Toujouse, Gers, Fransa",
        "value": "Toujouse",
        "type": "place",
        "position": {
          "lat": 43.833576,
          "lng": -0.177737
        }
      },
      {
        "label": "Impasse De Toulouse, 71310 Mervans, Fransa",
        "value": "Impasse De Toulouse",
        "type": "address",
        "position": {
          "lat": 46.781843,
          "lng": 5.183716
        }
      },
      {
        "label": "Toulouse, 82700 Montech, Fransa",
        "value": "Toulouse",
        "type": "address",
        "position": {
          "lat": 43.974806,
          "lng": 1.262855
        }
      },
      {
        "label": "Rue François Boyer-Fonfrède, 31000 Toulouse, Fransa",
        "value": "Rue François Boyer-Fonfrède",
        "type": "address",
        "position": {
          "lat": 43.601479,
          "lng": 1.44028
        }
      },
      {
        "label": "Rue Federico Garcia Lorca, 31200 Toulouse, Fransa",
        "value": "Rue Federico Garcia Lorca",
        "type": "address",
        "position": {
          "lat": 43.634758,
          "lng": 1.426598
        }
      },
      {
        "label": "Frederic Estebe, Toulouse, Haute-Garonne, Fransa",
        "value": "Frederic Estebe",
        "type": "neighborhood",
        "position": {
          "lat": 43.620136,
          "lng": 1.435923
        }
      },
      {
        "label": "Francoy, Cugnaux, Haute-Garonne, Fransa",
        "value": "Francoy",
        "type": "neighborhood",
        "position": {
          "lat": 43.547398,
          "lng": 1.348717
        }
      }
    ]
  },
  "Nice": {
    "Nice": [
      {
        "label": "Nice, Alpes-Maritimes, Fransa",
        "value": "Nice",
        "type": "place",
        "position": {
          "lat": 43.710082,
          "lng": 7.261844
        }
      },
      {
        "label": "Rue Francis Gallo, 06300 Nice, Fransa",
        "value": "Rue Francis Gallo",
        "type": "address",
        "position": {
          "lat": 43.697507,
          "lng": 7.275603
        }
      },
      {
        "label": "Rue Frédéric Passy, 06000 Nice, Fransa",
        "value": "Rue Frédéric Passy",
        "type": "address",
        "position": {
          "lat": 43.699564,
          "lng": 7.253849
        }
      },
      {
        "label": "Rue Cappatti, 06100 Nice, Fransa",
        "value": "Rue Cappatti",
        "type": "address",
        "position": {
          "lat": 43.721399,
          "lng": 7.260168
        }
      },
      {
        "label": "France-Negresco, Nice, Alpes-Maritimes, Fransa",
        "value": "France-Negresco",
        "type": "neighborhood",
        "position": {
          "lat": 43.696262,
          "lng": 7.264145
        }
      },
      {
        "label": "Rue De Nice, 62420 Billy-Montigny, Fransa",
        "value": "Rue De Nice",
        "type": "address",
        "position": {
          "lat": 50.411325,
          "lng": 2.909748
        }
      },
      {
        "label": "Le Petit Nice, 44270 Machecoul, Fransa",
        "value": "Le Petit Nice",
        "type": "address",
        "position": {
          "lat": 47.003862,
          "lng": -1.835281
        }
      }
    ]
  },
  "Nantes": {
    "Nantes": [
      {
        "label": "Nantes, Loire-Atlantique, Fransa",
        "value": "Nantes",
        "type": "place",
        "position": {
          "lat": 47.218183,
          "lng": -1.551244
        }
      },
      {
        "label": "Nantes, 41230 Lassay-sur-Croisne, Fransa",
        "value": "Nantes",
        "type": "address",
        "position": {
          "lat": 47.382255,
          "lng": 1.625212
        }
      },
      {
        "label": "Rue Du Frère Alexandre Lemesle, 44200 Nantes, Fransa",
        "value": "Rue Du Frère Alexandre Lemesle",
        "type": "address",
        "position": {
          "lat": 47.193673,
          "lng": -1.536465
        }
      },
      {
        "label": "Rue François-Joseph Talma, 44000 Nantes, Fransa",
        "value": "Rue François-Joseph Talma",
        "type": "address",
        "position": {
          "lat": 47.225147,
          "lng": -1.54876
        }
      },
      {
        "label": "Santes, Nord, Fransa",
        "value": "Santes",
        "type": "place",
        "position": {
          "lat": 50.59228,
          "lng": 2.960697
        }
      },
      {
        "label": "Nances, Savoie, Fransa",
        "value": "Nances",
        "type": "place",
        "position": {
          "lat": 45.590427,
          "lng": 5.796189
        }
      },
      {
        "label": "Rue De Nantes, 57880 Ham-sous-Varsberg, Fransa",
        "value": "Rue De Nantes",
        "type": "address",
        "position": {
          "lat": 49.190555,
          "lng": 6.663279
        }
      },
      {
        "label": "Rue De Nantes, 62160 Aix-Noulette, Fransa",
        "value": "Rue De Nantes",
        "type": "address",
        "position": {
          "lat": 50.44158,
          "lng": 2.695119
        }
      }
    ],
    "Santes": [
      {
        "label": "Nantes, Loire-Atlantique, Fransa",
        "value": "Nantes",
        "type": "place",
        "position": {
          "lat": 47.218183,
          "lng": -1.551244
        }
      },
      {
        "label": "Santes, Nord, Fransa",
        "value": "Santes",
        "type": "place",
        "position": {
          "lat": 50.59228,
          "lng": 2.960697
        }
      },
      {
        "label": "Nantes, 41230 Lassay-sur-Croisne, Fransa",
        "value": "Nantes",
        "type": "address",
        "position": {
          "lat": 47.382255,
          "lng": 1.625212
        }
      },
      {
        "label": "Rue Du Frère Alexandre Lemesle, 44200 Nantes, Fransa",
        "value": "Rue Du Frère Alexandre Lemesle",
        "type": "address",
        "position": {
          "lat": 47.193673,
          "lng": -1.536465
        }
      },
      {
        "label": "Rue François-Joseph Talma, 44000 Nantes, Fransa",
        "value": "Rue François-Joseph Talma",
        "type": "address",
        "position": {
          "lat": 47.225147,
          "lng": -1.54876
        }
      },
      {
        "label": "Nances, Savoie, Fransa",
        "value": "Nances",
        "type": "place",
        "position": {
          "lat": 45.590427,
          "lng": 5.796189
        }
      },
      {
        "label": "Rue De Nantes, 57880 Ham-sous-Varsberg, Fransa",
        "value": "Rue De Nantes",
        "type": "address",
        "position": {
          "lat": 49.190555,
          "lng": 6.663279
        }
      },
      {
        "label": "Les Santes, 18300 Sens-Beaujeu, Fransa",
        "value": "Les Santes",
        "type": "address",
        "position": {
          "lat": 47.329546,
          "lng": 2.701992
        }
      }
    ],
    "Nances": [
      {
        "label": "Nantes, Loire-Atlantique, Fransa",
        "value": "Nantes",
        "type": "place",
        "position": {
          "lat": 47.218183,
          "lng": -1.551244
        }
      },
      {
        "label": "Nances, Savoie, Fransa",
        "value": "Nances",
        "type": "place",
        "position": {
          "lat": 45.590427,
          "lng": 5.796189
        }
      },
      {
        "label": "Nantes, 41230 Lassay-sur-Croisne, Fransa",
        "value": "Nantes",
        "type": "address",
        "position": {
          "lat": 47.382255,
          "lng": 1.625212
        }
      },
      {
        "label": "Rue Du Frère Alexandre Lemesle, 44200 Nantes, Fransa",
        "value": "Rue Du Frère Alexandre Lemesle",
        "type": "address",
        "position": {
          "lat": 47.193673,
          "lng": -1.536465
        }
      },
      {
        "label": "Rue François-Joseph Talma, 44000 Nantes, Fransa",
        "value": "Rue François-Joseph Talma",
        "type": "address",
        "position": {
          "lat": 47.225147,
          "lng": -1.54876
        }
      },
      {
        "label": "Santes, Nord, Fransa",
        "value": "Santes",
        "type": "place",
        "position": {
          "lat": 50.59228,
          "lng": 2.960697
        }
      },
      {
        "label": "Nance, Jura, Fransa",
        "value": "Nance",
        "type": "place",
        "position": {
          "lat": 46.739918,
          "lng": 5.426865
        }
      },
      {
        "label": "Rances, Aube, Fransa",
        "value": "Rances",
        "type": "place",
        "position": {
          "lat": 48.466694,
          "lng": 4.546022
        }
      },
      {
        "label": "Mances, 34210 Cassagnoles, Fransa",
        "value": "Mances",
        "type": "address",
        "position": {
          "lat": 43.405465,
          "lng": 2.606744
        }
      },
      {
        "label": "Route De Cances, 15120 Ladinhac, Fransa",
        "value": "Route De Cances",
        "type": "address",
        "position": {
          "lat": 44.790639,
          "lng": 2.471589
        }
      }
    ]
  },
  "Strasbourg": {
    "Strazburg": [
      {
        "label": "Strazburg, Bas-Rhin, Fransa",
        "value": "Strazburg",
        "type": "place",
        "position": {
          "lat": 48.583483,
          "lng": 7.746848
        }
      },
      {
        "label": "Rue François Noblat, 67000 Strazburg, Fransa",
        "value": "Rue François Noblat",
        "type": "address",
        "position": {
          "lat": 48.570302,
          "lng": 7.79614
        }
      },
      {
        "label": "Rue François Haerter, 67100 Strazburg, Fransa",
        "value": "Rue François Haerter",
        "type": "address",
        "position": {
          "lat": 48.530785,
          "lng": 7.765871
        }
      },
      {
        "label": "Rue François Mauriac, 67800 Hœnheim, Fransa",
        "value": "Rue François Mauriac",
        "type": "address",
        "position": {
          "lat": 48.624707,
          "lng": 7.760085
        }
      },
      {
        "label": "Rue Frédéric Sali, 67800 Bischheim, Fransa",
        "value": "Rue Frédéric Sali",
        "type": "address",
        "position": {
          "lat": 48.611333,
          "lng": 7.751947
        }
      },
      {
        "label": "Rue Frédéric Chopin, 67116 Reichstett, Fransa",
        "value": "Rue Frédéric Chopin",
        "type": "address",
        "position": {
          "lat": 48.647343,
          "lng": 7.744036
        }
      }
    ]
  },
  "Montpellier": {
    "Montpellier": [
      {
        "label": "Route De Montpellier, 34790 Grabels, Fransa",
        "value": "Route De Montpellier",
        "type": "address",
        "position": {
          "lat": 43.643969,
          "lng": 3.820432
        }
      },
      {
        "label": "Montpellier, Hérault, Fransa",
        "value": "Montpellier",
        "type": "place",
        "position": {
          "lat": 43.610073,
          "lng": 3.87727
        }
      },
      {
        "label": "Chemin De Montpellier, 31620 Fronton, Fransa",
        "value": "Chemin De Montpellier",
        "type": "address",
        "position": {
          "lat": 43.853296,
          "lng": 1.394508
        }
      },
      {
        "label": "Montpellier, 40390 Saint-Laurent-de-Gosse, Fransa",
        "value": "Montpellier",
        "type": "address",
        "position": {
          "lat": 43.503224,
          "lng": -1.299006
        }
      },
      {
        "label": "Route De Montpellier, 34110 Frontignan, Fransa",
        "value": "Route De Montpellier",
        "type": "address",
        "position": {
          "lat": 43.428611,
          "lng": 3.728334
        }
      },
      {
        "label": "Chemin De Montpellier, 34130 Mauguio, Fransa",
        "value": "Chemin De Montpellier",
        "type": "address",
        "position": {
          "lat": 43.622976,
          "lng": 4.009572
        }
      }
    ],
    "Le Montellier": [
      {
        "label": "Route De Le Montellier, 01800 Joyeux, Fransa",
        "value": "Route De Le Montellier",
        "type": "address",
        "position": {
          "lat": 45.958721,
          "lng": 5.094905
        }
      },
      {
        "label": "Le Montellier, Ain, Fransa",
        "value": "Le Montellier",
        "type": "place",
        "position": {
          "lat": 45.92996,
          "lng": 5.072561
        }
      },
      {
        "label": "Chemin Du Montellier, 38300 Saint-Savin, Fransa",
        "value": "Chemin Du Montellier",
        "type": "address",
        "position": {
          "lat": 45.6104,
          "lng": 5.342087
        }
      },
      {
        "label": "Chemin De Lerre, 58250 Saint-Seine, Fransa",
        "value": "Chemin De Lerre",
        "type": "address",
        "position": {
          "lat": 46.729692,
          "lng": 3.82228
        }
      },
      {
        "label": "Chemin Le Montillier, 10100 Pars-lès-Romilly, Fransa",
        "value": "Chemin Le Montillier",
        "type": "address",
        "position": {
          "lat": 48.5037,
          "lng": 3.713594
        }
      },
      {
        "label": "Route De Montellier, 73270 Beaufort, Fransa",
        "value": "Route De Montellier",
        "type": "address",
        "position": {
          "lat": 45.68814,
          "lng": 6.568477
        }
      }
    ]
  },
  "Bordeaux": {
    "Bordeaux": [
      {
        "label": "Route De Bourdeaux, 26460 Crupies, Fransa",
        "value": "Route De Bourdeaux",
        "type": "address",
        "position": {
          "lat": 44.55477,
          "lng": 5.170523
        }
      },
      {
        "label": "Bordeaux, Gironde, Fransa",
        "value": "Bordeaux",
        "type": "place",
        "position": {
          "lat": 44.840115,
          "lng": -0.570681
        }
      },
      {
        "label": "Bordeaux, 82700 Montech, Fransa",
        "value": "Bordeaux",
        "type": "address",
        "position": {
          "lat": 43.975721,
          "lng": 1.262716
        }
      },
      {
        "label": "Bordeaux, 28270 Crucey-Villages, Fransa",
        "value": "Bordeaux",
        "type": "address",
        "position": {
          "lat": 48.676683,
          "lng": 1.100418
        }
      },
      {
        "label": "Bordeaux, 87230 Champsac, Fransa",
        "value": "Bordeaux",
        "type": "address",
        "position": {
          "lat": 45.70151,
          "lng": 0.962863
        }
      },
      {
        "label": "Chemin De Bordeaux, 61200 Gouffern en Auge, Fransa",
        "value": "Chemin De Bordeaux",
        "type": "address",
        "position": {
          "lat": 48.748165,
          "lng": 0.026214
        }
      },
      {
        "label": "Bourdeaux, Drôme, Fransa",
        "value": "Bourdeaux",
        "type": "place",
        "position": {
          "lat": 44.58728,
          "lng": 5.13434
        }
      }
    ],
    "Bourdeaux": [
      {
        "label": "Route De Bourdeaux, 26460 Crupies, Fransa",
        "value": "Route De Bourdeaux",
        "type": "address",
        "position": {
          "lat": 44.55477,
          "lng": 5.170523
        }
      },
      {
        "label": "Bordeaux, Gironde, Fransa",
        "value": "Bordeaux",
        "type": "place",
        "position": {
          "lat": 44.840115,
          "lng": -0.570681
        }
      },
      {
        "label": "Bourdeaux, Drôme, Fransa",
        "value": "Bourdeaux",
        "type": "place",
        "position": {
          "lat": 44.58728,
          "lng": 5.13434
        }
      },
      {
        "label": "Bordeaux, 82700 Montech, Fransa",
        "value": "Bordeaux",
        "type": "address",
        "position": {
          "lat": 43.975721,
          "lng": 1.262716
        }
      },
      {
        "label": "Bordeaux, 28270 Crucey-Villages, Fransa",
        "value": "Bordeaux",
        "type": "address",
        "position": {
          "lat": 48.676683,
          "lng": 1.100418
        }
      },
      {
        "label": "Bordeaux, 87230 Champsac, Fransa",
        "value": "Bordeaux",
        "type": "address",
        "position": {
          "lat": 45.70151,
          "lng": 0.962863
        }
      },
      {
        "label": "Bourdeaux, 47150 Monflanquin, Fransa",
        "value": "Bourdeaux",
        "type": "address",
        "position": {
          "lat": 44.510601,
          "lng": 0.766361
        }
      },
      {
        "label": "Bourdeau, Savoie, Fransa",
        "value": "Bourdeau",
        "type": "place",
        "position": {
          "lat": 45.683758,
          "lng": 5.856751
        }
      }
    ],
    "Bordeaux-Saint-Clair": [
      {
        "label": "Lieu Dit Saint-Clair, 47470 Cauzac, Fransa",
        "value": "Lieu Dit Saint-Clair",
        "type": "address",
        "position": {
          "lat": 44.292147,
          "lng": 0.81217
        }
      },
      {
        "label": "Saint Clair, 33570 Puisseguin, Fransa",
        "value": "Saint Clair",
        "type": "address",
        "position": {
          "lat": 44.922599,
          "lng": -0.055795
        }
      },
      {
        "label": "Bordeaux-Saint-Clair, Seine-Maritime, Fransa",
        "value": "Bordeaux-Saint-Clair",
        "type": "place",
        "position": {
          "lat": 49.700638,
          "lng": 0.257574
        }
      },
      {
        "label": "Les Bordeaux Saint Clair, 27420 Château-sur-Epte, Fransa",
        "value": "Les Bordeaux Saint Clair",
        "type": "address",
        "position": {
          "lat": 49.206784,
          "lng": 1.669184
        }
      },
      {
        "label": "Saint-Clair, Caluire-et-Cuire, Rhône, Fransa",
        "value": "Saint-Clair",
        "type": "neighborhood",
        "position": {
          "lat": 45.790672,
          "lng": 4.858922
        }
      },
      {
        "label": "Saint-Clair, Lot, Fransa",
        "value": "Saint-Clair",
        "type": "place",
        "position": {
          "lat": 44.699776,
          "lng": 1.410083
        }
      },
      {
        "label": "Saint-Clair, Ardèche, Fransa",
        "value": "Saint-Clair",
        "type": "place",
        "position": {
          "lat": 45.279324,
          "lng": 4.681359
        }
      },
      {
        "label": "Saint-Clair, Tarn-et-Garonne, Fransa",
        "value": "Saint-Clair",
        "type": "place",
        "position": {
          "lat": 44.163334,
          "lng": 0.946511
        }
      },
      {
        "label": "Saint-Clair, Vienne, Fransa",
        "value": "Saint-Clair",
        "type": "place",
        "position": {
          "lat": 46.88144,
          "lng": 0.062788
        }
      },
      {
        "label": "Lotissement Vallon De St-Clair, 83980 Le Lavandou, Fransa",
        "value": "Lotissement Vallon De St-Clair",
        "type": "address",
        "position": {
          "lat": 43.144091,
          "lng": 6.376253
        }
      }
    ],
    "Fréjus": [
      {
        "label": "Bordeaux, Gironde, Fransa",
        "value": "Bordeaux",
        "type": "place",
        "position": {
          "lat": 44.840115,
          "lng": -0.570681
        }
      },
      {
        "label": "Fréjus, Var, Fransa",
        "value": "Fréjus",
        "type": "place",
        "position": {
          "lat": 43.432735,
          "lng": 6.736484
        }
      },
      {
        "label": "Bordeaux, 82700 Montech, Fransa",
        "value": "Bordeaux",
        "type": "address",
        "position": {
          "lat": 43.975721,
          "lng": 1.262716
        }
      },
      {
        "label": "Bordeaux, 28270 Crucey-Villages, Fransa",
        "value": "Bordeaux",
        "type": "address",
        "position": {
          "lat": 48.676683,
          "lng": 1.100418
        }
      },
      {
        "label": "Bordeaux, 87230 Champsac, Fransa",
        "value": "Bordeaux",
        "type": "address",
        "position": {
          "lat": 45.70151,
          "lng": 0.962863
        }
      },
      {
        "label": "Chemin De Bordeaux, 61200 Gouffern en Auge, Fransa",
        "value": "Chemin De Bordeaux",
        "type": "address",
        "position": {
          "lat": 48.748165,
          "lng": 0.026214
        }
      },
      {
        "label": "Rue Frédéric Bastiat, 33100 Bordeaux, Fransa",
        "value": "Rue Frédéric Bastiat",
        "type": "address",
        "position": {
          "lat": 44.842593,
          "lng": -0.547888
        }
      },
      {
        "label": "Bourdeaux, Drôme, Fransa",
        "value": "Bourdeaux",
        "type": "place",
        "position": {
          "lat": 44.58728,
          "lng": 5.13434
        }
      }
    ]
  },
  "Lille": {
    "Lille": [
      {
        "label": "Lille, Nord, Fransa",
        "value": "Lille",
        "type": "place",
        "position": {
          "lat": 50.6363,
          "lng": 3.063554
        }
      },
      {
        "label": "Rond-Point Du Mas De L'ille, 66420 Le Barcarès, Fransa",
        "value": "Rond-Point Du Mas De L'ille",
        "type": "address",
        "position": {
          "lat": 42.809735,
          "lng": 3.032256
        }
      },
      {
        "label": "L'ille, 11200 Ferrals-les-Corbières, Fransa",
        "value": "L'ille",
        "type": "address",
        "position": {
          "lat": 43.151085,
          "lng": 2.714149
        }
      },
      {
        "label": "Lille, 11330 Lanet, Fransa",
        "value": "Lille",
        "type": "address",
        "position": {
          "lat": 42.967274,
          "lng": 2.481787
        }
      },
      {
        "label": "L'ille, 09140 Ustou, Fransa",
        "value": "L'ille",
        "type": "address",
        "position": {
          "lat": 42.79052,
          "lng": 1.266279
        }
      },
      {
        "label": "Chemin Le Loup, 47550 Layrac, Fransa",
        "value": "Chemin Le Loup",
        "type": "address",
        "position": {
          "lat": 44.145062,
          "lng": 0.638562
        }
      }
    ]
  }
}